,City,Cloudiness,Country,Date,Humidity,Latitude,Longitude,Max Temp,Wind Speed
0,Vaini,0,IN,1551762000,28,15.34,74.49,82.4,5.82
1,Punta Arenas,75,CL,1551764592,86,-53.16,-70.91,39.2,23.04
2,Oktyabrskoye,75,RU,1551764756,68,56.73,85.44,30.0,17.9
3,Sucua,12,EC,1551764958,84,-2.46,-78.17,62.24,2.17
4,Rikitea,48,PF,1551764768,97,-23.12,-134.97,81.01,14.58
5,La Ronge,20,CA,1551762000,47,55.1,-105.3,12.2,8.05
6,Ushuaia,40,AR,1551762000,75,-54.81,-68.31,41.0,8.05
7,Asosa,20,ET,1551764959,23,10.07,34.53,76.06,3.96
8,Namibe,12,AO,1551764960,100,-15.19,12.15,77.23,3.96
9,Qaanaaq,32,GL,1551764960,77,77.48,-69.36,-8.23,7.43
10,New Norfolk,75,AU,1551764836,56,-42.78,147.06,72.0,11.41
11,Labuhan,32,ID,1551764839,59,-2.54,115.51,90.01,3.74
12,Henties Bay,44,NA,1551762124,89,-22.12,14.28,66.0,4.0
13,Majene,20,ID,1551764961,92,-3.54,118.97,84.29,8.43
14,Hobart,75,AU,1551764840,56,-42.88,147.33,72.0,11.41
15,Tambilil,75,PH,1551762000,34,5.96,124.67,96.8,11.41
16,Tecpan,20,GT,1551764754,72,14.76,-90.99,68.0,6.93
17,Chitose,20,JP,1551763810,55,42.79,141.51,42.01,8.05
18,Victoria,75,BN,1551763800,66,5.28,115.24,89.6,5.82
19,Mani,0,GR,1551764963,85,41.41,26.4,38.53,8.21
20,Waingapu,12,ID,1551764964,94,-9.65,120.26,83.71,5.86
21,Komsomolskiy,56,RU,1551764964,70,67.55,63.78,-11.07,8.99
22,Atuona,12,PF,1551764964,100,-9.8,-139.03,82.13,13.91
23,Barrow,0,AR,1551764965,72,-38.31,-60.23,55.13,4.74
24,Carballo,40,ES,1551764914,87,43.21,-8.69,53.01,11.41
25,Faanui,64,PF,1551764928,100,-16.48,-151.75,83.44,8.43
26,Jutai,64,BR,1551764965,98,-1.71,-47.89,72.14,2.39
27,Eyl,100,SO,1551764966,91,7.98,49.82,79.07,15.26
28,Ahipara,0,NZ,1551764966,70,-35.17,173.16,69.49,9.44
29,Dikson,80,RU,1551764967,96,73.51,80.55,9.28,22.19
30,Popondetta,48,PG,1551764967,87,-8.77,148.24,76.82,1.61
31,Kamenka,92,RU,1551764480,86,53.19,44.05,32.0,13.8
32,Busselton,8,AU,1551764712,23,-33.64,115.35,82.0,16.26
33,Najran,5,SA,1551762000,27,17.54,44.22,64.4,2.24
34,Karsava,56,LV,1551764968,92,56.78,27.69,39.47,14.14
35,Mataura,0,NZ,1551764406,80,-46.19,168.86,69.01,7.0
36,Vila Velha,40,BR,1551764904,88,-3.71,-38.6,79.0,5.82
37,Kikwit,64,CD,1551764969,96,-5.04,18.82,73.13,4.41
38,Yellowknife,20,CA,1551763080,72,62.45,-114.38,10.4,16.11
39,Ilulissat,56,GL,1551761400,78,69.22,-51.1,14.0,5.82
40,Vila Franca do Campo,40,PT,1551764917,87,37.72,-25.43,55.4,36.91
41,Puerto Ayora,0,EC,1551764970,100,-0.74,-90.35,79.66,6.31
42,Kenai,1,US,1551764824,85,60.55,-151.26,25.0,6.08
43,Bredasdorp,0,ZA,1551762977,87,-34.53,20.04,57.99,1.12
44,Cape Town,0,ZA,1551764715,87,-33.93,18.42,66.0,8.05
45,Saskylakh,76,RU,1551764798,72,71.97,114.09,-6.48,4.85
46,Los Llanos de Aridane,0,ES,1551763800,67,28.66,-17.92,59.0,9.17
47,Lebu,12,ET,1551764972,68,8.96,38.73,60.76,3.85
48,Talnakh,88,RU,1551764972,81,69.49,88.39,23.09,13.02
49,Clyde River,90,CA,1551762300,83,70.47,-68.59,-4.01,3.36
50,Calama,0,CL,1551762000,74,-22.46,-68.93,51.8,16.11
51,Darapidap,0,PH,1551764973,46,17.21,120.41,85.78,6.64
52,Butaritari,68,KI,1551764843,100,3.07,172.79,83.08,17.72
53,Tazovskiy,68,RU,1551764974,88,67.47,78.7,12.65,19.39
54,Kaliua,8,TZ,1551764974,90,-5.06,31.79,68.41,2.73
55,Salinopolis,80,BR,1551764974,98,-0.61,-47.36,79.52,8.66
56,Kodiak,1,US,1551764971,30,39.95,-94.76,10.4,11.41
57,Bolshaya Glushitsa,92,RU,1551764062,94,50.24,43.59,34.0,1.01
58,Pedernales,80,EC,1551764975,93,0.07,-80.05,72.91,1.95
59,Saint Anthony,1,US,1551761760,78,43.97,-111.68,21.2,5.82
60,Georgetown,20,GY,1551762000,94,6.8,-58.16,75.2,4.7
61,Longyearbyen,40,NO,1551761400,64,78.22,15.63,-4.01,9.17
62,Nha Trang,0,VN,1551763800,41,12.24,109.19,93.2,12.75
63,Carnarvon,0,ZA,1551764976,62,-30.97,22.13,62.24,10.22
64,Riyadh,0,SA,1551762000,28,24.63,46.72,59.0,9.17
65,Hithadhoo,48,MV,1551764901,100,-0.6,73.08,83.26,5.97
66,Tuatapere,0,NZ,1551764406,80,-46.13,167.69,69.01,7.0
67,Manzhouli,8,CN,1551764707,27,49.6,117.43,32.09,14.03
68,Castro,75,CL,1551762000,93,-42.48,-73.76,50.0,6.93
69,Takapau,0,NZ,1551764957,65,-40.02,176.35,70.0,1.01
70,Goderich,32,CA,1551764935,80,43.74,-81.71,10.0,13.0
71,Upernavik,68,GL,1551764803,100,72.79,-56.15,10.94,5.75
72,Cidreira,0,BR,1551764979,84,-30.17,-50.22,74.84,8.99
73,Port Alfred,80,ZA,1551764762,94,-33.59,26.89,66.0,2.51
74,Tuktoyaktuk,5,CA,1551762000,85,69.44,-133.03,12.2,16.11
75,Norman Wells,20,CA,1551762000,85,65.28,-126.83,15.8,6.93
76,Quang Ngai,0,VN,1551764980,45,15.12,108.8,90.23,4.41
77,Chuy,80,UY,1551764980,99,-33.69,-53.46,69.31,10.45
78,Abu Zabad,0,SD,1551764980,23,12.35,29.25,71.74,12.68
79,Hermanus,48,ZA,1551764785,87,-34.42,19.24,61.0,1.99
80,Cuautitlan Izcalli,75,MX,1551761400,42,19.65,-99.25,64.4,2.62
81,Avarua,76,CK,1551763800,61,-21.21,-159.78,78.8,3.36
82,Khatanga,32,RU,1551764982,78,71.98,102.47,1.81,5.19
83,Broadford,20,IE,1551762000,81,52.35,-8.97,44.6,14.99
84,Hilo,90,US,1551764972,68,19.71,-155.08,68.0,10.29
85,Jamestown,0,AU,1551764983,91,-33.21,138.6,72.46,10.22
86,Port Elizabeth,1,US,1551764007,50,39.31,-74.98,30.0,5.82
87,Vardo,1,US,1551764938,50,39.62,-77.74,28.4,4.7
88,Provideniya,90,RU,1551762000,86,64.42,-173.23,28.4,8.95
89,Verkhnevilyuysk,92,RU,1551764984,75,63.45,120.31,18.14,8.99
90,Elizabeth City,1,US,1551764951,100,36.3,-76.22,39.99,4.97
91,Mar del Plata,0,AR,1551764984,60,-46.43,-67.52,53.15,18.05
92,Rosario,88,UY,1551764779,94,-34.31,-57.35,60.01,3.85
93,Nchelenge,12,ZM,1551764985,80,-9.35,28.74,72.05,3.96
94,Lagoa,75,PT,1551764827,93,37.14,-8.45,59.0,6.93
95,Bonavista,100,CA,1551764772,88,48.65,-53.11,28.99,15.01
96,Hamilton,75,CA,1551764763,78,43.26,-79.87,14.0,11.41
97,Dunedin,48,NZ,1551764429,44,-45.87,170.5,75.99,4.0
98,Angoche,92,MZ,1551764987,100,-16.23,39.91,77.18,14.7
99,Pevek,68,RU,1551764987,78,69.7,170.27,6.49,4.18
100,Adeje,56,NG,1551764987,93,5.68,5.76,74.03,3.06
101,Zhezkazgan,75,KZ,1551763800,100,47.8,67.71,10.4,4.47
102,Napier,0,NZ,1551764408,68,-39.49,176.92,70.0,4.0
103,Tumpat,75,MY,1551762000,62,6.2,102.17,87.8,10.29
104,Hasaki,20,JP,1551764974,50,35.73,140.83,61.0,5.82
105,Albany,20,US,1551764800,44,42.65,-73.75,19.0,14.99
106,Kushnarenkovo,76,RU,1551764989,86,55.11,55.34,21.02,4.29
107,Ponta do Sol,88,BR,1551764989,90,-20.63,-46.0,64.09,1.16
108,Kavaratti,0,IN,1551764836,100,10.57,72.64,81.64,9.55
109,Kapaa,90,US,1551764913,60,22.08,-159.32,71.6,17.22
110,Gao,0,ML,1551764990,54,16.28,-0.04,54.91,6.53
111,Wajima,40,JP,1551762000,73,37.4,136.9,50.0,4.7
112,Shiyan,76,CN,1551764692,59,32.65,110.78,51.01,5.01
113,Chokurdakh,32,RU,1551764848,68,70.62,147.9,-15.34,3.18
114,Nemuro,40,JP,1551762000,43,43.32,145.57,35.6,3.36
115,Shubarshi,88,KZ,1551764992,92,48.59,57.19,30.2,14.7
116,San Cristobal,75,EC,1551764721,93,-0.39,-78.55,57.2,4.7
117,Husavik,48,CA,1551764405,79,50.56,-96.99,6.01,8.01
118,Krasnyy Chikoy,0,RU,1551764992,33,50.36,108.75,32.23,3.18
119,Humaita,75,AR,1551762000,88,-24.93,-65.37,68.0,2.73
120,Aklavik,20,CA,1551762000,85,68.22,-135.01,17.6,11.41
121,Mananjary,20,MG,1551764993,97,-19.16,46.8,70.88,3.85
122,Rocha,92,UY,1551764743,95,-34.48,-54.34,67.06,9.44
123,Taguatinga,75,BR,1551762000,94,-15.83,-48.06,68.0,3.36
124,Boende,24,CD,1551764994,95,-0.28,20.88,73.31,3.06
125,Tasiilaq,0,GL,1551761400,72,65.61,-37.64,14.0,4.7
126,Shaoguan,92,CN,1551764995,97,24.81,113.59,66.61,8.77
127,Tura,80,IN,1551764883,83,25.52,90.21,69.49,2.06
128,Goundam,0,ML,1551764995,63,16.42,-3.66,52.66,3.74
129,Celestun,0,MX,1551764996,98,20.87,-90.4,78.62,16.93
130,Nyimba,8,ZM,1551764996,69,-14.56,30.81,78.44,3.85
131,Faya,0,SA,1551762000,39,18.39,42.45,64.4,16.11
132,Manuk Mangkaw,0,PH,1551764996,96,4.8,119.85,85.06,2.95
133,Ust-Nera,12,RU,1551764997,60,64.57,143.24,-15.61,2.17
134,Mahajanga,20,MG,1551762000,83,-15.72,46.32,80.6,2.24
135,Timmins,75,CA,1551762000,77,48.48,-81.33,-2.21,4.7
136,Cap-aux-Meules,64,CA,1551764997,97,47.38,-61.86,26.69,28.34
137,Mareeba,92,AU,1551764640,62,-16.99,145.42,87.8,13.87
138,Suntar,44,RU,1551764998,63,62.16,117.65,22.06,8.43
139,Thinadhoo,76,MV,1551764998,100,0.53,72.93,83.26,5.3
140,East London,75,ZA,1551762960,100,-33.02,27.91,66.2,9.17
141,Haines Junction,20,CA,1551764999,60,60.75,-137.51,-9.4,2.62
142,Cauquenes,0,CL,1551764999,91,-35.97,-72.32,49.51,7.76
143,Dinar,75,TR,1551763200,93,38.07,30.16,37.4,4.7
144,Mahebourg,40,MU,1551764645,70,-20.41,57.7,84.99,8.05
145,LUGOBA,0,TZ,1551765000,85,-6.46,38.33,79.48,3.29
146,Coquimbo,0,CL,1551762000,82,-29.95,-71.34,59.0,6.31
147,Sao Jose da Coroa Grande,76,BR,1551765001,97,-8.9,-35.15,77.09,3.62
148,Mehamn,40,NO,1551761400,78,71.03,27.85,17.6,11.41
149,Luzhou,92,CN,1551765002,93,28.89,105.45,53.96,4.63
150,Pilar,0,AR,1551764938,93,-34.46,-58.91,69.8,3.06
151,Fort Nelson,5,CA,1551762000,84,58.81,-122.69,5.0,2.24
152,Waddan,0,LY,1551765006,74,29.16,16.14,32.9,2.73
153,Saint-Philippe,90,CA,1551765004,52,45.36,-73.48,17.6,5.82
154,Richards Bay,76,ZA,1551765007,92,-28.77,32.06,72.73,13.35
155,Margate,75,AU,1551764954,56,-43.03,147.26,72.0,11.41
156,Bluff,76,AU,1551764801,57,-23.58,149.07,83.53,13.24
157,San Carlos de Bariloche,40,AR,1551762000,70,-41.13,-71.31,46.4,23.04
158,Mount Gambier,75,AU,1551762000,60,-37.83,140.78,71.6,19.46
159,Lewisporte,90,CA,1551764728,100,49.25,-55.06,24.8,23.04
160,Severo-Kurilsk,64,RU,1551764880,100,50.68,156.12,22.64,6.98
161,Ampanihy,80,MG,1551765008,97,-24.69,44.75,76.96,6.76
162,Grand Gaube,40,MU,1551764945,70,-20.01,57.66,84.99,8.05
163,Thompson,20,CA,1551762000,83,55.74,-97.86,-9.41,3.36
164,Adrar,0,DZ,1551762000,25,27.87,-0.29,51.8,11.41
165,Sao Filipe,0,CV,1551765010,94,14.9,-24.5,70.7,15.26
166,Anantnag,8,IN,1551765010,71,33.74,75.15,40.06,1.83
167,Broken Hill,40,AU,1551762000,15,-31.97,141.45,96.8,19.46
168,Siderno,20,IT,1551765005,81,38.28,16.3,60.8,4.7
169,Trincomalee,12,LK,1551765011,67,8.58,81.23,90.41,1.72
170,Half Moon Bay,75,US,1551764968,93,37.46,-122.43,52.0,3.36
171,Harper,90,US,1551764816,54,30.3,-99.24,30.99,6.93
172,Veraval,75,FR,1551765003,81,49.65,0.71,45.0,17.22
173,Tiksi,12,RU,1551764861,61,71.64,128.87,0.68,10.56
174,Nantucket,1,US,1551764800,41,41.28,-70.1,28.4,14.99
175,Isangel,75,VU,1551762000,79,-19.55,169.27,86.0,3.36
176,Uyskoye,0,RU,1551765013,81,54.37,60.01,13.78,5.97
177,Buchanan,75,LR,1551762000,94,5.88,-10.05,75.2,5.97
178,Luganville,44,VU,1551765014,99,-15.51,167.18,82.63,5.75
179,Nikolskoye,75,RU,1551764903,92,59.7,30.79,28.4,8.95
180,Loa Janan,8,ID,1551765014,76,-0.58,117.09,87.53,3.4
181,Bethel,90,US,1551762840,93,60.79,-161.76,37.4,10.29
182,Banes,40,CU,1551761400,83,20.96,-75.72,73.4,2.24
183,Leningradskiy,36,RU,1551765015,98,69.38,178.42,10.63,6.64
184,Eenhana,0,NA,1551762000,60,-17.48,16.34,69.8,13.24
185,Ribeira Grande,44,PT,1551765016,98,38.52,-28.7,59.86,40.65
186,Katsuura,75,JP,1551763482,24,33.93,134.5,57.99,11.41
187,Okha,0,RU,1551765017,91,53.59,142.95,10.94,17.05
188,Obo,32,CF,1551765017,82,5.39,26.49,72.95,3.85
189,Gaoua,0,BF,1551765017,35,10.33,-3.18,66.61,5.64
190,Quatre Cocos,40,MU,1551764945,70,-20.21,57.76,84.99,8.05
191,Baykit,36,RU,1551765018,85,61.68,96.39,26.96,9.66
192,Viedma,0,AR,1551765018,79,-40.81,-62.99,49.46,2.62
193,Kindersley,90,CA,1551762000,66,51.47,-109.16,10.4,20.8
194,Montepuez,80,MZ,1551765019,99,-13.13,39.0,75.83,8.43
195,Santa Ines,75,EC,1551764721,93,-0.82,-78.63,51.8,2.24
196,Te Anau,44,NZ,1551765020,61,-45.41,167.72,68.18,13.02
197,Governador Valadares,36,BR,1551765020,90,-18.85,-41.95,70.7,2.73
198,Jieshi,92,CN,1551765020,100,22.82,115.83,68.59,8.77
199,Roesti,0,RO,1551764726,60,44.92,24.08,43.0,6.93
200,Ambilobe,0,MG,1551764863,100,-13.19,49.05,80.06,4.41
201,Alofi,92,NU,1551762000,74,-19.06,-169.92,80.6,12.75
202,Muros,75,ES,1551764914,93,42.77,-9.06,54.0,11.41
203,Viborg,88,DK,1551765004,87,56.45,9.41,42.8,16.11
204,Salamiyah,92,SY,1551764974,98,35.01,37.05,46.04,4.29
205,Arawa,48,NG,1551765022,95,7.05,3.9,73.36,2.51
206,Pangai,36,TO,1551765023,99,-19.8,-174.35,80.56,20.29
207,Portlethen,8,GB,1551764973,86,57.05,-2.13,30.2,1.12
208,Mandali,0,IQ,1551765023,51,33.75,45.55,55.67,5.97
209,The Valley,40,AI,1551764741,78,18.22,-63.06,77.0,12.75
210,Snyder,1,US,1551765003,53,32.72,-100.92,23.0,5.82
211,Zeya,0,RU,1551765024,42,53.74,127.27,22.06,6.87
212,Bambous Virieux,40,MU,1551764945,70,-20.34,57.76,84.99,8.05
213,Vestmannaeyjar,76,IS,1551765025,100,63.44,-20.27,29.89,5.64
214,Lorengau,68,PG,1551765025,100,-2.02,147.27,79.34,6.64
215,Launceston,80,AU,1551764759,60,-41.43,147.14,68.0,25.28
216,Nueva Loja,24,EC,1551765026,94,0.08,-76.88,74.03,2.17
217,Wanaka,0,NZ,1551765026,51,-44.7,169.14,69.94,3.96
218,Phonhong,0,LA,1551762000,49,18.5,102.42,89.6,2.24
219,Okakarara,32,NA,1551765027,37,-20.59,17.46,71.74,4.18
220,Stephenville Crossing,90,CA,1551762000,74,48.5,-58.44,28.4,18.34
221,Hrebinka,24,UA,1551765027,91,50.12,32.43,36.19,14.36
222,Mogzon,0,RU,1551765028,40,51.74,111.97,27.64,3.96
223,Berlevag,40,NO,1551761400,78,70.86,29.09,14.0,11.41
224,Turukhansk,88,RU,1551765002,91,65.8,87.96,26.33,9.22
225,Gazojak,20,TM,1551765028,77,41.19,61.4,42.35,7.99
226,Kitaibaraki,20,JP,1551764910,37,36.84,140.74,64.0,12.75
227,Padang,64,ID,1551765029,100,-0.92,100.36,83.98,13.8
228,Ola,8,RU,1551765030,100,59.58,151.3,10.49,5.41
229,Dingle,32,PH,1551765030,60,11.0,122.67,85.64,14.7
230,Diapaga,0,BF,1551765030,23,12.07,1.79,70.07,9.1
231,Deder,0,ET,1551765030,57,9.31,41.44,73.58,3.74
232,Omboue,68,GA,1551765031,100,-1.57,9.26,81.05,10.11
233,Kununurra,8,AU,1551762000,35,-15.77,128.74,98.6,4.7
234,Himmaste,36,EE,1551764594,86,58.09,27.09,39.2,13.87
235,Alagoinhas,80,BR,1551765032,97,-12.13,-38.42,74.12,3.51
236,Ofunato,20,JP,1551762000,29,39.11,141.75,51.8,4.7
237,Singkang,75,MY,1551762000,59,2.1,102.8,91.4,3.36
238,Ipixuna,75,BR,1551762000,100,-1.76,-48.8,73.4,11.41
239,Bijie,44,CN,1551765033,80,27.3,105.3,51.44,5.19
240,Ozinki,36,RU,1551765033,93,51.2,49.73,30.16,7.65
241,Tandil,0,AR,1551764674,54,-37.33,-59.14,64.99,9.66
242,Lundazi,12,ZM,1551765034,65,-12.29,33.17,75.34,6.53
243,Catuday,0,PH,1551765034,68,16.29,119.81,87.35,5.86
244,Saint George,0,GR,1551764599,86,39.45,22.34,44.01,3.96
245,Tromso,90,NO,1551764606,72,69.65,18.96,15.8,21.92
246,Excelsior Springs,1,US,1551765300,56,39.34,-94.23,12.2,6.93
247,Ostersund,0,SE,1551763200,84,63.18,14.64,5.0,2.24
248,Port-Gentil,40,GA,1551762000,88,-0.72,8.78,80.6,4.7
249,Ilinskiy,90,RU,1551764420,93,55.62,38.12,37.4,11.18
250,Maniitsoq,48,GL,1551765036,69,65.42,-52.9,11.48,5.86
251,Kandrian,76,PG,1551765036,96,-6.21,149.55,78.71,2.51
252,Miranda,75,CO,1551762000,78,3.25,-76.23,73.4,9.17
253,Kungsbacka,90,SE,1551764986,96,57.49,12.08,35.01,10.29
254,Zyryanka,76,RU,1551765038,54,65.73,150.89,-0.13,6.42
255,Constitucion,0,MX,1551765038,46,23.99,-104.67,54.28,6.64
256,Oistins,92,BB,1551764765,99,13.07,-59.53,77.72,20.29
257,Matara,8,PE,1551765039,97,-13.74,-72.9,37.09,1.28
258,Pangnirtung,64,CA,1551764933,60,66.15,-65.72,-7.42,3.62
259,Dong Hoi,12,VN,1551765039,86,17.48,106.6,80.42,7.65
260,Abu Dhabi,0,AE,1551763920,49,24.47,54.37,69.8,11.41
261,Shieli,12,KZ,1551765040,88,44.18,66.74,37.67,4.41
262,Grindavik,40,IS,1551764356,79,63.84,-22.43,28.99,5.82
263,Mana,0,RS,1551762000,46,43.52,20.24,53.6,9.17
264,Alice Springs,0,AU,1551762000,15,-23.7,133.88,96.8,9.17
265,Soanierana Ivongo,76,MG,1551765041,100,-16.92,49.59,80.29,2.95
266,Malinovoye Ozero,0,RU,1551765041,87,51.68,79.77,25.25,10.33
267,Lavrentiya,44,RU,1551765041,86,65.58,-170.99,23.68,5.86
268,Trelew,0,AR,1551764931,35,-43.25,-65.31,57.83,12.91
269,Namatanai,36,PG,1551765042,93,-3.66,152.44,85.28,5.64
270,Nova Borova,76,UA,1551765042,85,50.69,28.64,40.55,15.82
271,Hit,0,IQ,1551765042,70,33.64,42.83,53.6,4.74
272,Sharjah,20,AE,1551762000,55,25.36,55.39,69.8,8.05
273,Torbay,92,CA,1551765028,97,47.66,-52.73,30.99,3.0
274,Otavi,88,NA,1551765043,30,-19.64,17.34,75.2,7.43
275,Lompoc,90,US,1551764881,81,34.64,-120.46,55.0,2.62
276,Klaksvik,80,FO,1551763200,64,62.23,-6.59,39.2,11.41
277,Bacolod,56,PH,1551764952,66,10.68,122.95,83.12,11.12
278,Kurganinsk,80,RU,1551765044,74,44.89,40.59,35.06,8.55
279,Brae,44,GB,1551763200,69,60.4,-1.35,41.0,14.99
280,Nanlong,92,CN,1551765045,96,31.35,106.05,55.09,8.55
281,Eureka,1,US,1551764950,87,40.8,-124.16,44.01,4.7
282,Codrington,80,AU,1551763850,43,-28.95,153.24,87.8,12.75
283,Fortuna,0,ES,1551765022,62,38.18,-1.13,59.0,6.93
284,Mollendo,20,PE,1551765046,88,-17.03,-72.02,58.82,2.62
285,Yulara,0,AU,1551762000,9,-25.24,130.99,102.2,11.41
286,Zharkovskiy,92,RU,1551765047,93,55.85,32.27,39.11,15.59
287,Kaitangata,8,NZ,1551765001,85,-46.28,169.85,64.99,1.99
288,Iraan,1,US,1551765013,62,30.91,-101.9,26.01,3.36
289,Yalvac,68,TR,1551761400,100,38.3,31.18,28.4,2.84
290,Smithers,1,CA,1551762000,65,54.78,-127.17,8.6,2.24
291,Kruisfontein,0,ZA,1551764900,85,-34.0,24.73,62.56,3.96
292,Nanortalik,0,GL,1551764889,98,60.14,-45.24,24.8,8.55
293,Smirnykh,0,RU,1551765049,59,49.74,142.83,19.99,13.02
294,Lasem,20,ID,1551763800,59,-6.99,112.52,89.6,8.05
295,Arraial do Cabo,8,BR,1551765050,92,-22.97,-42.02,79.16,11.01
296,Caramay,0,PH,1551765050,87,10.18,119.24,83.08,13.47
297,Khandyga,0,RU,1551764891,55,62.65,135.58,-5.71,3.29
298,Huarmey,12,PE,1551765050,86,-10.07,-78.15,65.84,2.39
299,Iqaluit,40,CA,1551764568,76,63.75,-68.52,-9.01,1.39
300,Karratha,0,AU,1551764914,24,-20.74,116.85,103.28,12.01
301,Sept-Iles,90,CA,1551764732,85,50.2,-66.38,19.99,3.36
302,Souillac,20,FR,1551765036,93,45.6,-0.6,46.0,12.75
303,Flin Flon,68,CA,1551764846,64,54.77,-101.88,10.49,6.31
304,Calabozo,0,VE,1551765052,61,8.92,-67.43,79.39,13.91
305,Kalmunai,24,LK,1551765056,82,7.42,81.82,86.36,3.74
306,Mitu,8,IR,1551765056,87,36.2,46.09,32.72,2.73
307,Yerbogachen,48,RU,1551765056,71,61.28,108.01,24.17,4.97
308,Capoterra,0,IT,1551764714,93,39.18,8.97,55.4,8.05
309,Ostrovnoy,0,RU,1551765057,66,68.05,39.51,-1.66,14.14
310,North Bend,1,US,1551765017,86,43.41,-124.22,37.4,4.7
311,Manjacaze,68,MZ,1551765058,77,-24.71,33.88,82.67,6.42
312,Kungurtug,0,RU,1551765058,56,50.6,97.53,35.69,3.4
313,Bundaberg,40,AU,1551765003,58,-24.87,152.35,86.0,17.22
314,Muroto,0,JP,1551762000,99,33.37,134.14,59.0,9.17
315,Puksoozero,88,RU,1551765059,88,62.59,40.61,10.81,9.44
316,Ukiah,75,US,1551764908,81,39.15,-123.21,48.2,2.17
317,Pacific Grove,1,US,1551765015,76,36.62,-121.92,53.6,4.7
318,Jackville,0,CI,1551762000,88,5.21,-4.42,82.4,4.7
319,Zhicheng,8,CN,1551765060,71,35.04,112.59,62.11,3.18
320,Khipro,0,PK,1551765060,89,25.83,69.38,70.43,4.63
321,Yumen,24,CN,1551765060,65,40.29,97.04,40.24,5.86
322,Sfantu Gheorghe,0,RO,1551765035,69,44.65,26.83,42.01,9.17
323,Juneau,20,US,1551761760,62,58.3,-134.42,23.0,2.73
324,Zeerust,0,ZA,1551763440,57,-25.54,26.07,75.2,5.82
325,Poum,20,MK,1551765062,79,41.28,20.71,20.48,1.83
326,Port Lincoln,64,AU,1551765062,89,-34.72,135.86,69.26,16.49
327,Palauig,0,PH,1551765062,60,15.44,119.9,87.04,3.18
328,Kiunga,24,PG,1551765063,67,-6.12,141.3,89.06,4.18
329,Abong Mbang,80,CM,1551765063,97,3.98,13.18,68.63,2.84
330,Airai,48,TL,1551764799,87,-8.93,125.41,77.59,1.28
331,Ancud,75,CL,1551762000,93,-41.87,-73.83,50.0,6.93
332,Trapani,0,IT,1551765064,42,38.02,12.54,62.6,19.46
333,Caravelas,48,BR,1551765065,100,-17.73,-39.27,80.96,4.52
334,Dawei,0,MM,1551765065,45,14.07,98.19,87.98,3.06
335,Dordrecht,75,NL,1551765063,75,51.8,4.68,44.01,16.11
336,Handan,0,CN,1551765066,39,36.58,114.48,66.29,13.35
337,Linhai,100,CN,1551765036,90,28.86,121.14,52.0,2.73
338,Jiangyou,92,CN,1551765066,58,31.78,104.73,56.66,9.44
339,Mount Isa,40,AU,1551762000,23,-20.73,139.49,95.0,8.05
340,Clarence Town,0,AU,1551765026,45,-32.59,151.78,99.0,16.11
341,Lethem,0,GY,1551765067,64,3.38,-59.8,78.98,13.91
342,Zyryanovsk,64,KZ,1551765067,78,49.74,84.27,36.86,2.84
343,Polyarnyy,0,RU,1551762000,71,69.2,33.45,8.6,8.95
344,Salta,75,AR,1551762000,88,-24.79,-65.41,68.0,2.28
345,Camacha,40,PT,1551762000,87,33.08,-16.33,60.8,4.7
346,Dzidzantun,0,MX,1551765068,62,21.25,-89.05,79.25,6.76
347,Marystown,12,CA,1551764954,100,47.17,-55.16,37.99,23.64
348,Makakilo City,90,US,1551764964,56,21.35,-158.09,71.6,6.93
349,Ucluelet,76,CA,1551764791,81,48.94,-125.55,32.0,1.95
350,Saint-Pierre,75,FR,1551764877,93,48.95,4.24,42.8,18.34
351,Tual,56,ID,1551765070,100,-5.67,132.75,82.99,7.54
352,Bintulu,75,MY,1551762000,83,3.17,113.03,82.4,3.36
353,Nabire,68,ID,1551765071,85,-3.36,135.5,76.91,2.17
354,Srednekolymsk,88,RU,1551765071,57,67.46,153.71,-6.16,4.18
355,Yeppoon,90,AU,1551762000,48,-23.13,150.74,87.8,14.99
356,Strezhevoy,75,RU,1551762000,85,60.73,77.6,17.6,13.42
357,Marsh Harbour,24,BS,1551764882,99,26.54,-77.06,76.37,10.0
358,Madimba,40,CM,1551762000,88,4.42,9.93,77.0,3.36
359,Asyut,0,EG,1551762000,66,27.18,31.19,48.2,9.17
360,Dwarka,0,IN,1551764708,82,28.58,77.04,70.0,8.05
361,Miraflores,36,CO,1551765073,97,5.2,-73.14,46.31,0.49
362,Lensk,8,RU,1551765073,57,60.71,114.91,24.08,8.32
363,Barra dos Coqueiros,40,BR,1551762000,83,-10.91,-37.04,80.6,6.93
364,Xai-Xai,68,MZ,1551765074,90,-25.04,33.64,82.13,6.87
365,Presidencia Roque Saenz Pena,92,AR,1551765074,95,-26.79,-60.44,72.41,7.76
366,Marfino,90,RU,1551764420,100,56.07,37.56,37.4,11.18
367,Santa Isabel,68,CO,1551765075,98,4.71,-75.1,63.73,1.61
368,Makinsk,76,KZ,1551765076,92,52.63,70.42,22.82,17.83
369,Ciudad Bolivar,0,VE,1551765076,60,8.12,-63.55,78.58,15.14
370,Pinneberg,75,DE,1551765032,81,53.66,9.8,43.0,13.87
371,Empangeni,76,ZA,1551765077,92,-28.75,31.9,72.73,13.35
372,Bahia Blanca,0,AR,1551765077,74,-38.72,-62.27,60.53,11.12
373,Bauchi,0,NG,1551765077,61,10.31,9.85,62.06,2.62
374,Fairview,40,US,1551764928,45,40.81,-74.0,30.2,11.41
375,Meulaboh,12,ID,1551764846,96,4.14,96.13,86.9,4.97
376,Port Hardy,5,CA,1551762000,79,50.7,-127.42,26.6,6.93
377,Mutoko,24,ZW,1551765079,69,-17.4,32.23,72.28,3.96
378,Sao Raimundo das Mangabeiras,80,BR,1551765079,95,-7.02,-45.48,69.62,2.84
379,Jumla,0,NP,1551765080,69,29.28,82.18,32.72,1.72
380,Syedove,0,UA,1551765080,88,47.08,38.16,37.31,17.27
381,Gamba,12,CN,1551765081,100,28.28,88.52,16.7,3.18
382,Cherskiy,56,RU,1551765081,76,68.75,161.3,2.44,7.65
383,Beidao,88,CN,1551764883,88,34.57,105.89,44.74,3.74
384,Prainha,56,BR,1551765081,94,-1.8,-53.48,76.37,4.63
385,Naurskaya,48,RU,1551762000,86,43.65,45.31,28.4,2.24
386,Loandjili,40,CG,1551762000,100,-4.77,11.87,75.2,2.24
387,Moctezuma,36,MX,1551765083,57,29.81,-109.68,50.81,0.72
388,La Asuncion,76,EC,1551765083,98,-1.64,-78.74,46.18,0.6
389,Yenagoa,68,NG,1551765083,93,4.92,6.26,72.59,2.62
390,Beringovskiy,0,RU,1551764895,85,63.05,179.32,25.48,9.66
391,Elko,1,US,1551764871,61,40.83,-115.76,32.0,3.36
392,Guadalupe y Calvo,12,MX,1551765084,64,26.09,-106.96,43.34,0.94
393,Avera,90,US,1551765078,93,33.19,-82.53,46.4,5.82
394,Bulgan,20,MN,1551765084,24,48.81,103.53,42.94,5.08
395,Greeley,1,US,1551764897,47,41.55,-98.53,14.0,16.11
396,Paita,76,PE,1551765085,81,-5.09,-81.11,75.11,1.39
397,Verkhnyaya Inta,56,RU,1551765085,72,65.99,60.32,5.63,6.2
398,Elk River,75,US,1551765072,77,45.3,-93.57,6.8,14.47
399,Camacari,20,BR,1551762000,88,-12.7,-38.32,80.6,5.82
400,Sao Joao da Barra,56,BR,1551765033,100,-21.64,-41.05,79.34,8.66
401,Bilma,0,NE,1551765087,32,18.69,12.92,50.68,8.99
402,Vao,80,EE,1551765087,94,59.1,26.19,36.68,11.45
403,Praia da Vitoria,40,PT,1551763873,87,38.73,-27.07,57.0,42.77
404,Saint John,75,CA,1551764930,85,45.28,-66.06,23.0,2.24
405,Cabedelo,20,BR,1551762000,100,-6.97,-34.84,77.0,6.93
406,Leh,48,IN,1551764982,81,34.16,77.58,-5.35,1.39
407,Izhma,12,RU,1551765088,51,65.01,53.91,0.46,6.98
408,Minas,75,UY,1551762000,100,-34.38,-55.24,66.2,4.7
409,Parakou,0,BJ,1551765089,81,9.34,2.63,63.32,5.86
410,Aykhal,36,RU,1551765089,80,65.95,111.51,19.22,7.76
411,Astoria,1,US,1551765065,43,46.19,-123.83,37.0,10.29
412,Santo Domingo,12,DO,1551764598,87,18.48,-69.94,73.99,1.01
413,Salalah,0,OM,1551761400,61,17.01,54.1,77.0,2.24
414,Narsaq,24,GL,1551761400,49,60.91,-46.05,23.0,5.82
415,Bristol,20,GB,1551764897,86,51.45,-2.6,42.01,10.29
416,Coihueco,12,CL,1551762000,71,-36.63,-71.83,53.6,8.05
417,Shahrud,8,IR,1551765091,79,36.42,54.97,38.89,3.62
418,Quelimane,75,MZ,1551762000,94,-17.88,36.89,78.8,12.75
419,Antofagasta,0,CL,1551762000,82,-23.65,-70.4,64.4,2.24
420,Arlit,0,NE,1551765092,42,18.74,7.39,53.06,2.73
421,Karpathos,40,GR,1551763200,66,35.51,27.21,53.6,13.24
422,Yaan,20,NG,1551765093,90,7.38,8.57,74.75,5.86
423,Katangli,32,RU,1551765093,100,51.71,143.23,19.99,14.92
424,Kudahuvadhoo,48,MV,1551764941,99,2.67,72.89,83.39,2.95
425,Lindi,92,TZ,1551765093,91,-10.0,39.71,81.46,3.74
426,Mecca,0,SA,1551765003,23,21.43,39.83,65.84,3.96
427,Mookane,36,BW,1551765094,52,-23.68,26.66,76.69,8.21
428,Guarapari,40,BR,1551762000,94,-20.67,-40.5,77.0,4.7
429,Necochea,0,AR,1551764891,89,-38.55,-58.74,60.01,5.3
430,Bad Wildbad,90,DE,1551765088,81,48.75,8.55,46.99,14.99
431,Baoding,0,CN,1551765095,45,38.86,115.49,60.44,9.44
432,Ulladulla,75,AU,1551764730,54,-35.36,150.48,86.0,5.82
433,Sinnamary,88,GF,1551765096,95,5.38,-52.96,78.8,12.24
434,Costinesti,0,RO,1551765035,75,43.95,28.63,45.0,11.41
435,Jacareacanga,0,BR,1551765096,84,-6.22,-57.76,77.23,3.62
436,Nome,90,US,1551764912,60,30.04,-94.42,39.2,10.29
437,Beloha,56,MG,1551765097,87,-25.17,45.06,80.33,8.43
438,Chifeng,8,CN,1551765097,51,42.27,118.96,43.34,10.22
439,Doha,0,QA,1551763800,37,25.29,51.53,68.0,6.93
440,Lunglei,12,IN,1551765098,59,22.89,92.75,73.31,3.29
441,Sri Aman,75,MY,1551762000,74,1.24,111.46,86.0,5.82
442,Hauterive,75,FR,1551764825,71,46.09,3.45,41.0,3.36
443,Chalus,40,IR,1551762000,66,36.66,51.42,53.6,2.28
444,Marawi,64,PH,1551764799,87,8.0,124.29,80.01,7.0
445,Puerto Colombia,0,CO,1551762000,83,10.99,-74.96,77.0,19.46
446,Santa Cruz,90,US,1551764946,87,36.97,-122.03,53.01,3.36
447,Hami,32,CN,1551765101,51,42.84,93.51,53.42,9.78
448,Ntcheu,56,MW,1551765101,89,-14.82,34.64,74.21,6.76
449,Nucsoara,8,RO,1551765102,56,45.33,24.78,33.71,3.62
450,Jimo,92,CN,1551762000,58,36.39,120.46,53.6,8.95
451,Tolmachevo,90,RU,1551764420,93,55.36,38.22,37.4,11.18
452,Igarka,56,RU,1551765103,93,67.47,86.57,23.36,15.26
453,Dauriya,0,RU,1551765103,29,49.93,116.85,32.54,11.56
454,Garowe,92,SO,1551765103,74,8.41,48.48,75.34,8.99
455,High Rock,8,BS,1551765104,96,26.63,-78.28,78.26,12.68
456,Togul,20,RU,1551765104,95,53.47,85.91,26.96,14.25
457,Coolum Beach,88,AU,1551765060,71,-26.53,153.09,81.0,1.01
458,Formosa,24,AR,1551765078,42,-26.19,-58.17,83.57,10.45
459,Moree,0,AU,1551764714,25,-29.46,149.84,91.0,4.7
460,Mangalore,40,IN,1551763800,48,12.87,74.84,87.8,4.7
461,Kochi,40,IN,1551763800,62,9.96,76.25,87.8,5.82
462,Sandnessjoen,0,NO,1551763200,52,66.02,12.63,21.2,16.11
463,Kavieng,48,PG,1551765086,100,-2.57,150.8,84.11,4.18
464,Santa Marta,40,CO,1551762000,69,11.24,-74.21,80.6,4.7
465,Xuddur,0,SO,1551765107,63,4.12,43.89,79.7,13.58
466,Quesnel,0,CA,1551764432,73,52.98,-122.49,1.99,2.06
467,Kasiri,40,SL,1551762000,94,8.94,-13.11,73.4,3.36
468,Baherden,20,TM,1551765108,99,38.44,57.43,45.86,3.4
469,Samarai,8,PG,1551765091,100,-10.62,150.67,82.13,6.64
470,Brody,88,UA,1551765108,91,50.08,25.14,42.62,16.04
471,Severobaykalsk,36,RU,1551765108,73,55.65,109.32,17.87,2.39
472,Flagstaff,1,US,1551764903,65,35.2,-111.65,51.01,5.82
473,Batemans Bay,36,AU,1551764845,82,-35.71,150.18,86.0,4.0
474,Powell River,20,CA,1551765003,68,49.84,-124.52,32.0,4.7
475,Anloga,0,GH,1551765110,92,5.79,0.9,76.51,4.18
476,Stubbekobing,92,DK,1551764944,89,54.89,12.04,43.0,11.01
477,Evans,1,US,1551765064,77,40.38,-104.69,9.0,0.6
478,Vanavara,64,RU,1551764904,78,60.35,102.28,27.28,5.75
479,Bourail,76,NC,1551765111,89,-21.57,165.5,76.82,3.62
480,Vallenar,0,CL,1551765111,64,-28.58,-70.76,56.66,3.85
481,Kloulklubed,90,PW,1551765000,74,7.04,134.26,84.2,12.75
482,Sitka,20,US,1551764726,82,37.17,-99.65,8.01,1.99
483,Goroka,80,PG,1551765112,95,-6.07,145.39,64.13,0.72
484,Maceio,40,BR,1551762000,88,-9.67,-35.74,77.0,2.24
485,Nefteyugansk,40,RU,1551762000,85,61.09,72.61,15.8,8.95
486,Ouro Preto do Oeste,20,BR,1551765112,89,-10.75,-62.22,75.02,2.51
487,Port Macquarie,0,AU,1551764645,51,-31.43,152.91,86.0,19.46
488,Kulu,24,CD,1551765113,85,3.47,23.69,76.28,2.62
489,Filingue,0,NE,1551765113,31,14.35,3.32,67.55,7.31
490,Rorvik,0,NO,1551763200,85,64.86,11.24,17.6,4.7
491,Carutapera,92,BR,1551765114,100,-1.2,-46.02,75.02,3.74
492,Oxford,90,US,1551765069,55,33.61,-85.83,35.01,8.05
493,Businga,0,CD,1551765115,90,3.34,20.89,72.73,3.18
494,Guerrero Negro,20,MX,1551765115,97,27.97,-114.04,55.63,7.43
495,Baruun-Urt,36,MN,1551765031,40,46.68,113.28,32.36,13.8
496,Guangyuan,92,CN,1551765095,36,32.43,105.86,66.99,1.01
497,Murgab,75,TM,1551762000,76,37.5,61.97,50.0,6.93
498,Aasiaat,64,GL,1551765116,100,68.71,-52.87,15.49,5.75
499,Sola,90,FI,1551763200,92,62.78,29.36,17.6,5.82
500,Denpasar,20,ID,1551763800,70,-8.65,115.22,87.8,10.29
501,Warrington,80,GB,1551765034,86,53.39,-2.59,39.2,8.05
502,Honiara,68,SB,1551765118,97,-9.43,159.96,77.9,2.62
503,Pointe Michel,76,DM,1551765118,89,15.25,-61.38,77.86,20.18
504,Gorontalo,0,ID,1551765118,44,0.54,123.06,92.08,2.39
505,Champerico,40,MX,1551761280,65,16.38,-93.6,78.8,14.99
506,Kuusamo,0,FI,1551763200,84,65.96,29.19,-2.21,6.93
507,Zhigansk,88,RU,1551764872,77,66.77,123.37,7.07,9.55
508,Petrokamenskoye,0,RU,1551765119,72,57.72,60.65,10.04,8.66
509,Petropavlovsk-Kamchatskiy,0,RU,1551762000,38,53.05,158.65,23.0,6.71
510,Nago,12,IT,1551765094,100,45.88,10.89,46.0,6.93
511,Pitimbu,20,BR,1551762000,100,-7.47,-34.81,77.0,6.93
512,Lagunas,0,PE,1551765120,89,-5.23,-75.68,77.59,2.06
513,Saldanha,12,PT,1551765121,86,41.42,-6.55,31.28,3.62
514,Whitehorse,5,CA,1551764721,60,60.72,-135.06,5.0,5.82
515,Ginda,20,IN,1551763800,55,30.69,78.49,66.2,5.82
516,Sapulpa,1,US,1551765022,52,36.0,-96.11,19.99,3.36
517,Szamosszeg,0,HU,1551764901,65,48.04,22.36,48.0,10.29
518,Batatais,90,BR,1551762000,94,-20.89,-47.59,71.6,4.7
519,Broome,8,GB,1551765096,93,52.47,1.45,39.0,10.29
520,Gaozhou,92,CN,1551765123,93,21.91,110.85,70.93,8.43
521,Buraydah,0,SA,1551762000,71,26.33,43.97,50.0,3.36
522,Hammonton,1,US,1551765106,53,39.64,-74.8,28.99,13.47
523,Lincoln,0,GB,1551765080,93,53.23,-0.54,37.99,12.75
524,Vanimo,36,PG,1551765124,98,-2.67,141.3,83.39,14.81
525,Kampene,76,CD,1551765124,92,-3.59,26.67,72.14,2.95
526,Darnah,0,LY,1551765125,98,32.77,22.64,60.71,17.72
527,Peniche,75,PT,1551764819,93,39.36,-9.38,57.0,4.7
528,The Pas,1,CA,1551762000,65,53.82,-101.24,5.0,8.05
529,Vuktyl,0,RU,1551765125,60,63.86,57.31,0.86,4.97
530,Alekseyevskoye,88,RU,1551765126,72,45.2,43.58,37.31,6.87
531,Caluquembe,48,AO,1551765126,94,-13.78,14.68,61.52,2.51
532,Letlhakane,0,BW,1551765126,58,-21.42,25.59,76.06,10.0
533,Spornoye,48,RU,1551763800,90,50.84,37.29,35.6,13.42
534,Tipuani,80,BO,1551765127,93,-15.56,-68.02,68.27,0.94
535,Abu Samrah,92,SY,1551765127,96,35.3,37.18,48.02,4.18
536,Nouadhibou,0,MR,1551762000,77,20.93,-17.03,60.8,14.99
537,Yuanping,0,CN,1551765127,60,38.72,112.71,41.41,4.97
538,Cabo San Lucas,5,MX,1551765059,63,22.89,-109.91,69.01,6.93
539,Myre,90,SE,1551764992,78,62.25,17.37,15.01,6.93
540,Souris,90,CA,1551765023,92,46.36,-62.25,25.0,11.41
541,Baikunthpur,0,IN,1551765128,58,23.26,82.56,79.97,3.4
542,Bakau,0,GM,1551762000,68,13.48,-16.68,64.4,4.7
543,Zabol,0,IR,1551762000,40,31.03,61.49,68.0,4.7
544,Esperance,20,TT,1551765007,78,10.24,-61.45,77.0,10.29
545,Ust-Omchug,68,RU,1551765130,64,61.13,149.63,3.83,3.74
546,Pochutla,5,MX,1551764760,74,15.74,-96.47,78.8,4.85
547,Deputatskiy,44,RU,1551765130,72,69.3,139.9,-7.65,2.84
548,Makasar,75,ID,1551765017,74,-6.28,106.88,88.0,3.36
549,Solnechnyy,0,RU,1551765131,66,50.72,136.64,24.98,3.4
550,La Orilla,0,MX,1551765131,100,18.0,-102.23,68.14,1.83
551,Touros,75,BR,1551762000,94,-5.2,-35.46,77.0,4.7
552,Dudinka,80,RU,1551765131,84,69.41,86.18,21.43,16.6
553,Sovetskiy,80,RU,1551765132,91,56.76,48.47,19.58,10.67
554,Ushtobe,48,KZ,1551765132,98,45.25,77.98,34.43,4.63
555,Buenos Aires,0,AR,1551764804,83,-34.61,-58.44,69.8,2.24
556,Aswan,0,EG,1551762000,30,24.09,32.9,55.4,2.24
557,Dinghai,90,CN,1551762000,87,26.28,119.79,53.6,8.95
558,Caucaia,40,BR,1551764904,88,-3.73,-38.66,79.0,5.82
559,Manono,92,CD,1551765134,100,-7.3,27.4,68.09,7.65
560,Duluth,1,US,1551765300,84,46.77,-92.13,1.99,9.17
561,Vila,0,IT,1551765126,63,45.18,8.4,45.0,8.05
562,Cananea,1,MX,1551764957,32,30.98,-110.3,55.0,5.82
563,Jalu,0,LY,1551765135,88,29.03,21.55,46.36,3.18
564,Mbini,48,GQ,1551765136,100,1.58,9.62,78.26,3.85
565,Greensburg,90,US,1551765050,91,30.83,-90.67,36.0,10.29
